Station,Complex,Stop_ID,Division,Line,Stop_Name,Borough,Daytime_Routes,Structure,Latitude,Longitude,North_Label,South_Label,CBD
1 AV-L,119,L06,BMT,Canarsie,1 Av,M,L,Subway,40.730953,-73.981628,8 Av,Brooklyn,"Y"
103 ST-1,309,119,IRT,Broadway - 7Av,103 St,M,1,Subway,40.799446,-73.968379,Uptown & The Bronx,Downtown,"N"
103 ST-6,395,624,IRT,Lexington Av,103 St,M,6,Subway,40.7906,-73.947478,Uptown & The Bronx,Downtown,"N"
103 ST-BC,156,A18,IND,8th Av - Fulton St,103 St,M,B C,Subway,40.796092,-73.961454,Uptown & The Bronx,Downtown & Brooklyn,"N"
103 ST-CORONA-7,450,706,IRT,Flushing,103 St-Corona Plaza,Q,7,Elevated,40.749865,-73.8627,Flushing,Manhattan,"N"
104 ST-A,193,A63,IND,Liberty Av,104 St,Q,A,Elevated,40.681711,-73.837683,Manhattan,Lefferts Blvd,"N"
104 ST-JZ,82,J14,BMT,Jamaica,104 St,Q,J Z,Elevated,40.695178,-73.84433,Jamaica,Manhattan,"N"
110 ST-6,394,623,IRT,Lexington Av,110 St,M,6,Subway,40.79502,-73.94425,Uptown & The Bronx,Downtown,"N"
111 ST-7,449,705,IRT,Flushing,111 St,Q,7,Elevated,40.75173,-73.855334,Flushing,Manhattan,"N"
111 ST-A,194,A64,IND,Liberty Av,111 St,Q,A,Elevated,40.684331,-73.832163,Manhattan,Lefferts Blvd,"N"
111 ST-J,81,J13,BMT,Jamaica,111 St,Q,J,Elevated,40.697418,-73.836345,Jamaica,Manhattan,"N"
116 ST-23,440,226,IRT,Lenox - White Plains Rd,116 St,M,2 3,Subway,40.802098,-73.949625,Uptown & The Bronx,Downtown & Brooklyn,"N"
116 ST-6,393,622,IRT,Lexington Av,116 St,M,6,Subway,40.798629,-73.941617,Uptown & The Bronx,Downtown,"N"
116 ST-BC,154,A16,IND,8th Av - Fulton St,116 St,M,B C,Subway,40.805085,-73.954882,Uptown & The Bronx,Downtown & Brooklyn,"N"
116 ST-COLUMBIA-1,307,117,IRT,Broadway - 7Av,116 St-Columbia University,M,1,Subway,40.807722,-73.96411,Uptown & The Bronx,Downtown,"N"
121 ST-JZ,80,J12,BMT,Jamaica,121 St,Q,J Z,Elevated,40.700492,-73.828294,Jamaica,Manhattan,"N"
125 ST-1,306,116,IRT,Broadway - 7Av,125 St,M,1,Elevated,40.815581,-73.958372,Uptown & The Bronx,Downtown,"N"
125 ST-23,439,225,IRT,Lenox - White Plains Rd,125 St,M,2 3,Subway,40.807754,-73.945495,Uptown & The Bronx,Downtown & Brooklyn,"N"
125 ST-456,392,621,IRT,Lexington Av,125 St,M,4 5 6,Subway,40.804138,-73.937594,The Bronx,Downtown & Brooklyn,"N"
125 ST-ACBD,153,A15,IND,8th Av - Fulton St,125 St,M,A B C D,Subway,40.811109,-73.952343,Uptown & The Bronx,Downtown & Brooklyn,"N"
135 ST-23,438,224,IRT,Lenox - White Plains Rd,135 St,M,2 3,Subway,40.814229,-73.94077,Uptown & The Bronx,Downtown & Brooklyn,"N"
135 ST-BC,152,A14,IND,8th Av - Fulton St,135 St,M,B C,Subway,40.817894,-73.947649,Uptown & The Bronx,Downtown & Brooklyn,"N"
137 ST CITY COL-1,305,115,IRT,Broadway - 7Av,137 St-City College,M,1,Subway,40.822008,-73.953676,Uptown & The Bronx,Downtown,"N"
138/GRAND CONC-45,391,416,IRT,Jerome Av,138 St-Grand Concourse,Bx,4 5,Subway,40.813224,-73.929849,Woodlawn - Eastchester Dyre Av,Manhattan,"N"
14 ST-123FLM,601,D19,IND,6th Av - Culver,14 St,M,F M,Subway,40.738228,-73.996209,Uptown & Queens,Downtown & Brooklyn,"Y"
14 ST-ACEL,618,A31,IND,8th Av - Fulton St,14 St,M,A C E,Subway,40.740893,-74.00169,Uptown - Queens,Downtown & Brooklyn,"Y"
14 ST-UNION SQ-456LNQRW,602,R20,BMT,Broadway - Brighton,14 St-Union Sq,M,4 5 6 L N Q R W,Subway,40.735736,-73.990568,Uptown & Queens,Downtown & Brooklyn,"Y"
145 ST-1,304,114,IRT,Broadway - 7Av,145 St,M,1,Subway,40.826551,-73.95036,Uptown & The Bronx,Downtown,"N"
145 ST-3,437,302,IRT,Lenox - White Plains Rd,145 St,M,3,Subway,40.820421,-73.936245,148 St,Downtown & Brooklyn,"N"
145 ST-ABCD,151,A12,IND,8th Av - Fulton St,145 St,M,A C,Subway,40.824783,-73.944216,Uptown & The Bronx,Downtown & Brooklyn,"N"
149/GRAND CONC-245,603,415,IRT,Jerome Av,149 St-Grand Concourse,Bx,4,Subway,40.818375,-73.927351,Woodlawn,Manhattan,"N"
14TH STREET-1-PATH,912,,,,PATH-14 St,M,,,,,,,"Y"
15 ST-PROSPECT-FG,241,F25,IND,6th Av - Culver,15 St-Prospect Park,Bk,F G,Subway,40.660365,-73.979493,Manhattan - Queens,Church Av - Coney Island,"N"
155 ST-BD,220,D12,IND,Concourse,155 St,M,B D,Subway,40.830135,-73.938209,The Bronx,Downtown & Brooklyn,"N"
155 ST-C,150,A11,IND,8th Av - Fulton St,155 St,M,C,Subway,40.830518,-73.941514,Uptown,Downtown & Brooklyn,"N"
157 ST-1,303,113,IRT,Broadway - 7Av,157 St,M,1,Subway,40.834041,-73.94489,Uptown & The Bronx,Downtown,"N"
161/YANKEE STAD-4BD,604,D11,IND,Concourse,161 St-Yankee Stadium,Bx,B D,Subway,40.827905,-73.925651,Bedford Pk Blvd & 205 St,Manhattan,"N"
163 ST-AMSTERDM-C,149,A10,IND,8th Av - Fulton St,163 St-Amsterdam Av,M,C,Subway,40.836013,-73.939892,Uptown,Downtown & Brooklyn,"N"
167 ST-4,388,413,IRT,Jerome Av,167 St,Bx,4,Elevated,40.835537,-73.9214,Woodlawn,Manhattan,"N"
167 ST-BD,218,D10,IND,Concourse,167 St,Bx,B D,Subway,40.833771,-73.91844,Bedford Pk Blvd & 205 St,Manhattan,"N"
168 ST-1AC,605,A09,IND,8th Av - Fulton St,168 St,M,A C,Subway,40.840719,-73.939561,207 St,Downtown & Brooklyn,"N"
169 ST-F,255,F02,IND,Queens Blvd,169 St,Q,F,Subway,40.71047,-73.793604,179 St,Manhattan,"N"
170 ST-4,387,412,IRT,Jerome Av,170 St,Bx,4,Elevated,40.840075,-73.917791,Woodlawn,Manhattan,"N"
170 ST-BD,217,D09,IND,Concourse,170 St,Bx,B D,Subway,40.839306,-73.9134,Bedford Pk Blvd & 205 St,Manhattan,"N"
174 ST-25,428,215,IRT,Lenox - White Plains Rd,174 St,Bx,2 5,Elevated,40.837288,-73.887734,Wakefield - Eastchester,Manhattan,"N"
174-175 STS-BD,216,D08,IND,Concourse,174-175 Sts,Bx,B D,Subway,40.8459,-73.910136,Bedford Pk Blvd & 205 St,Manhattan,"N"
175 ST-A,147,A07,IND,8th Av - Fulton St,175 St,M,A,Subway,40.847391,-73.939704,207 St,Downtown & Brooklyn,"N"
176 ST-4,385,410,IRT,Jerome Av,176 St,Bx,4,Elevated,40.84848,-73.911794,Woodlawn,Manhattan,"N"
18 AV-D,66,B19,BMT,West End,18 Av,Bk,D,Elevated,40.607954,-74.001736,Manhattan,Coney Island,"N"
18 AV-F,245,F30,IND,6th Av - Culver,18 Av,Bk,F,Elevated,40.629755,-73.976971,Manhattan,Coney Island,"N"
18 AV-N,74,N05,BMT,Sea Beach,18 Av,Bk,N,Open Cut,40.620671,-73.990414,Manhattan,Coney Island,"N"
18 ST-1,321,131,IRT,Broadway - 7Av,18 St,M,1,Subway,40.74104,-73.997871,Uptown & The Bronx,Downtown,"Y"
181 ST-1,301,111,IRT,Broadway - 7Av,181 St,M,1,Subway,40.849505,-73.933596,Uptown & The Bronx,Downtown,"N"
181 ST-A,146,A06,IND,8th Av - Fulton St,181 St,M,A,Subway,40.851695,-73.937969,207 St,Downtown & Brooklyn,"N"
182-183 STS-BD,214,D06,IND,Concourse,182-183 Sts,Bx,B D,Subway,40.856093,-73.900741,Bedford Pk Blvd & 205 St,Manhattan,"N"
183 ST-4,383,408,IRT,Jerome Av,183 St,Bx,4,Elevated,40.858407,-73.903879,Woodlawn,Manhattan,"N"
190 ST-A,145,A05,IND,8th Av - Fulton St,190 St,M,A,Subway,40.859022,-73.93418,207 St,Downtown & Brooklyn,"N"
191 ST-1,300,110,IRT,Broadway - 7Av,191 St,M,1,Subway,40.855225,-73.929412,Uptown & The Bronx,Downtown,"N"
2 AV-F,232,F14,IND,6th Av - Culver,2 Av,M,F,Subway,40.723402,-73.989938,Uptown & Queens,Downtown & Brooklyn,"Y"
20 AV-D,67,B20,BMT,West End,20 Av,Bk,D,Elevated,40.604556,-73.998168,Manhattan,Coney Island,"N"
20 AV-N,75,N06,BMT,Sea Beach,20 Av,Bk,N,Open Cut,40.61741,-73.985026,Manhattan,Coney Island,"N"
207 ST-1,298,108,IRT,Broadway - 7Av,207 St,M,1,Elevated,40.864621,-73.918822,Uptown & The Bronx,Downtown,"N"
21 ST-G,282,G24,IND,Crosstown,21 St,Q,G,Subway,40.744065,-73.949724,Court Sq,Brooklyn,"N"
21 ST-QNSBRIDGE-F,221,B04,IND,63rd St,21 St-Queensbridge,Q,F,Subway,40.754203,-73.942836,Jamaica,Manhattan,"N"
215 ST-1,297,107,IRT,Broadway - 7Av,215 St,M,1,Elevated,40.869444,-73.915279,The Bronx,Downtown,"N"
219 ST-25,420,207,IRT,Lenox - White Plains Rd,219 St,Bx,2 5,Elevated,40.883895,-73.862633,Wakefield - 241 St,Manhattan,"N"
225 ST-25,419,206,IRT,Lenox - White Plains Rd,225 St,Bx,2 5,Elevated,40.888022,-73.860341,Wakefield - 241 St,Manhattan,"N"
23 ST-1,320,130,IRT,Broadway - 7Av,23 St,M,1,Subway,40.744081,-73.995657,Uptown & The Bronx,Downtown,"Y"
23 ST-6,405,634,IRT,Lexington Av,23 St,M,6,Subway,40.739864,-73.986599,Uptown & The Bronx,Downtown,"Y"
23 ST-CE,165,A30,IND,8th Av - Fulton St,23 St,M,C E,Subway,40.745906,-73.998041,Uptown - Queens,Downtown & Brooklyn,"Y"
23 ST-FM,228,D18,IND,6th Av - Culver,23 St,M,F M,Subway,40.742878,-73.992821,Uptown & Queens,Downtown & Brooklyn,"Y"
23 ST-NRW,14,R19,BMT,Broadway - Brighton,23 St,M,R W,Subway,40.741303,-73.989344,Uptown & Queens,Downtown & Brooklyn,"Y"
231 ST-1,295,104,IRT,Broadway - 7Av,231 St,Bx,1,Elevated,40.878856,-73.904834,242 St,Manhattan,"N"
233 ST-25,418,205,IRT,Lenox - White Plains Rd,233 St,Bx,2 5,Elevated,40.893193,-73.857473,Wakefield - 241 St,Manhattan,"N"
238 ST-1,294,103,IRT,Broadway - 7Av,238 St,Bx,1,Elevated,40.884667,-73.90087,242 St,Manhattan,"N"
25 AV-D,69,B22,BMT,West End,25 Av,Bk,D,Elevated,40.597704,-73.986829,Manhattan,Coney Island,"N"
25 ST-R,31,R35,BMT,4th Av,25 St,Bk,R,Subway,40.660397,-73.998091,Manhattan,Bay Ridge - 95 St,"N"
28 ST-1,319,129,IRT,Broadway - 7Av,28 St,M,1,Subway,40.747215,-73.993365,Uptown & The Bronx,Downtown,"Y"
28 ST-6,404,633,IRT,Lexington Av,28 St,M,6,Subway,40.74307,-73.984264,Uptown & The Bronx,Downtown,"Y"
28 ST-NRW,13,R18,BMT,Broadway - Brighton,28 St,M,R W,Subway,40.745494,-73.988691,Uptown & Queens,Downtown & Brooklyn,"Y"
3 AV 138 ST-6,377,619,IRT,Pelham,3 Av-138 St,Bx,6,Subway,40.810476,-73.926138,Pelham Bay Park,Manhattan,"N"
3 AV-149 ST-25,434,221,IRT,Lenox - White Plains Rd,3 Av-149 St,Bx,2 5,Subway,40.816109,-73.917757,Wakefield - Eastchester,Manhattan,"N"
3 AV-L,118,L05,BMT,Canarsie,3 Av,M,L,Subway,40.732849,-73.986122,8 Av,Brooklyn,"Y"
30 AV-NQW,3,R04,BMT,Astoria,30 Av,Q,N W,Elevated,40.766779,-73.921479,Astoria - Ditmars Blvd,Manhattan,"N"
33 ST-6,403,632,IRT,Lexington Av,33 St,M,6,Subway,40.746081,-73.982076,Uptown & The Bronx,Downtown,"Y"
33 ST-RAWSON ST-7,460,716,IRT,Flushing,33 St-Rawson St,Q,7,Elevated,40.744587,-73.930997,Flushing,Manhattan,"N"
34 ST-HERALD SQ-BDFMNQRW,607,R17,BMT,Broadway - Brighton,34 St-Herald Sq,M,B D F M N Q R W,Subway,40.749567,-73.98795,Uptown & Queens,Downtown & Brooklyn,"Y"
34 ST-HUDSON YD-7,471,726,IRT,Flushing,34 St-Hudson Yards,M,7,Subway,40.755882,-74.00191,Queens,,"Y"
34 ST-PENN STA-123,318,128,IRT,Broadway - 7Av,34 St-Penn Station,M,1 2 3,Subway,40.750373,-73.991057,Uptown & The Bronx,Downtown & Brooklyn,"Y"
34 ST-PENN STA-ACE,164,A28,IND,8th Av - Fulton St,34 St-Penn Station,M,A C E,Subway,40.752287,-73.993391,Uptown - Queens,Downtown & Brooklyn,"Y"
36 AV-NQW,5,R06,BMT,Astoria,36 Av,Q,N W,Elevated,40.756804,-73.929575,Astoria - Ditmars Blvd,Manhattan,"N"
36 ST-DNR,32,R36,BMT,4th Av,36 St,Bk,D N R,Subway,40.655144,-74.003549,Manhattan,Coney Island - Bay Ridge,"N"
36 ST-MR,272,G20,IND,Queens Blvd,36 St,Q,M R,Subway,40.752039,-73.928781,Forest Hills,Manhattan,"N"
39 AV-NQW,6,R08,BMT,Astoria,39 Av-Dutch Kills,Q,N W,Elevated,40.752882,-73.932755,Astoria - Ditmars Blvd,Manhattan,"N"
4 AV-9 ST-DFGMNR,608,R33,BMT,4th Av,4 Av-9 St,Bk,F G R,Subway,40.670847,-73.988302,Manhattan,Bay Ridge - 95 St,"N"
40 ST LOWERY ST-7,459,715,IRT,Flushing,40 St-Lowery St,Q,7,Elevated,40.743781,-73.924016,Flushing,Manhattan,"N"
42 ST-BRYANT PK-BDFM7,609,D16,IND,6th Av - Culver,42 St-Bryant Pk,M,B D F M,Subway,40.754222,-73.984569,Uptown & The Bronx - Queens,Downtown & Brooklyn,"Y"
42 ST-PORT AUTH-ACENQRS1237W,611,A27,IND,8th Av - Fulton St,42 St-Port Authority Bus Terminal,M,A C E,Subway,40.757308,-73.989735,Uptown - Queens,Downtown & Brooklyn,"Y"
45 ST-R,33,R39,BMT,4th Av,45 St,Bk,R,Subway,40.648939,-74.010006,Manhattan,Bay Ridge - 95 St,"N"
46 ST BLISS ST-7,458,714,IRT,Flushing,46 St-Bliss St,Q,7,Elevated,40.743132,-73.918435,Flushing,Manhattan,"N"
46 ST-MR,270,G18,IND,Queens Blvd,46 St,Q,M R,Subway,40.756312,-73.913333,Forest Hills,Manhattan,"N"
47-50 STS ROCK-BDFM,225,D15,IND,6th Av - Culver,47-50 Sts-Rockefeller Ctr,M,B D F M,Subway,40.758663,-73.981329,Uptown & The Bronx - Queens,Downtown & Brooklyn,"Y"
49 ST-NQRW,10,R15,BMT,Broadway - Brighton,49 St,M,N R W,Subway,40.759901,-73.984139,Uptown & Queens,Downtown & Brooklyn,"Y"
5 AV/53 ST-EM,276,F12,IND,Queens Blvd,5 Av/53 St,M,E M,Subway,40.760167,-73.975224,Queens,Downtown & Brooklyn,"Y"
5 AV/59 ST-NQRW,8,R13,BMT,Astoria,5 Av/59 St,M,N W R,Subway,40.764811,-73.973347,Queens,Downtown & Brooklyn,"Y"
50 ST-1,316,126,IRT,Broadway - 7Av,50 St,M,1,Subway,40.761728,-73.983849,Uptown & The Bronx,Downtown,"Y"
50 ST-CE,162,A25,IND,8th Av - Fulton St,50 St,M,C E,Subway,40.762456,-73.985984,Uptown - Queens,Downtown & Brooklyn,"Y"
50 ST-D,61,B14,BMT,West End,50 St,Bk,D,Elevated,40.63626,-73.994791,Manhattan,Coney Island,"N"
51 ST-6,612,630,IRT,Lexington Av,51 St,M,6,Subway,40.757107,-73.97192,Uptown & The Bronx,Downtown,"Y"
52 ST-7,457,713,IRT,Flushing,52 St,Q,7,Elevated,40.744149,-73.912549,Flushing,Manhattan,"N"
53 ST-R,34,R40,BMT,4th Av,53 St,Bk,R,Subway,40.645069,-74.014034,Manhattan,Bay Ridge - 95 St,"N"
55 ST-D,62,B15,BMT,West End,55 St,Bk,D,Elevated,40.631435,-73.995476,Manhattan,Coney Island,"N"
57 ST-7 AV-NQRW,9,R14,BMT,Broadway - Brighton,57 St-7 Av,M,N Q R W,Subway,40.764664,-73.980658,Uptown & Queens,Downtown & Brooklyn,"Y"
57 ST-F,224,B10,IND,6th Av - Culver,57 St,M,F,Subway,40.763972,-73.97745,Uptown & Queens,Downtown & Brooklyn,"Y"
59 ST COLUMBUS-1ABCD,614,A24,IND,8th Av - Fulton St,59 St-Columbus Circle,M,1 A B C D,Subway,40.768296,-73.981736,Uptown & The Bronx,Downtown & Brooklyn,"Y"
59 ST-456NQRW,613,629,IRT,Lexington Av,59 St,M,4 5 6 N Q R W,Subway,40.762526,-73.967967,Uptown & The Bronx,Downtown & Brooklyn,"Y"
59 ST-NRW,35,R41,BMT,4th Av,59 St,Bk,D N R,Subway,40.641362,-74.017881,Manhattan,Coney Island - Bay Ridge,"N"
61 ST WOODSIDE-7,456,712,IRT,Flushing,Woodside-61 St,Q,7,Elevated,40.74563,-73.902984,Flushing,Manhattan,"N"
63 DR-REGO PARK-MR,263,G10,IND,Queens Blvd,63 Dr-Rego Park,Q,M R,Subway,40.729846,-73.861604,Forest Hills,Manhattan,"N"
65 ST-MR,268,G15,IND,Queens Blvd,65 St,Q,M R,Subway,40.749669,-73.898453,Forest Hills,Manhattan,"N"
66 ST-LINCOLN-1,314,124,IRT,Broadway - 7Av,66 St-Lincoln Center,M,1,Subway,40.77344,-73.982209,Uptown & The Bronx,Downtown,"N"
67 AV-MR,262,G09,IND,Queens Blvd,67 Av,Q,M R,Subway,40.726523,-73.852719,Forest Hills,Manhattan,"N"
68ST-HUNTER CO-6,399,628,IRT,Lexington Av,68 St-Hunter College,M,6,Subway,40.768141,-73.96387,Uptown & The Bronx,Downtown,"N"
69 ST-7,455,711,IRT,Flushing,69 St,Q,7,Elevated,40.746325,-73.896403,Flushing,Manhattan,"N"
7 AV-BDE,277,D14,IND,Queens Blvd,7 Av,M,B D E,Subway,40.762862,-73.981637,Uptown & The Bronx - Queens,Downtown & Brooklyn,"Y"
7 AV-BQ,41,D25,BMT,Broadway - Brighton,7 Av,Bk,B Q,Subway,40.67705,-73.972367,Manhattan,Brighton Beach & Coney Island,"N"
7 AV-FG,240,F24,IND,6th Av - Culver,7 Av,Bk,F G,Subway,40.666271,-73.980305,Manhattan - Queens,Church Av - Coney Island,"N"
71 ST-D,64,B17,BMT,West End,71 St,Bk,D,Elevated,40.619589,-73.998864,Manhattan,Coney Island,"N"
72 ST-123,313,123,IRT,Broadway - 7Av,72 St,M,1 2 3,Subway,40.778453,-73.98197,Uptown & The Bronx,Downtown & Brooklyn,"N"
72 ST-2 AVE-Q,477,Q03,IND,Second Av,72 St,M,Q,Subway,40.768799,-73.958424,Uptown,Downtown & Brooklyn,"N"
72 ST-BC,160,A22,IND,8th Av - Fulton St,72 St,M,B C,Subway,40.775594,-73.97641,Uptown & The Bronx,Downtown & Brooklyn,"N"
75 AV-EF,260,F07,IND,Queens Blvd,75 Av,Q,E F,Subway,40.718331,-73.837324,Jamaica,Manhattan,"N"
75 ST-ELDERTS-JZ,85,J17,BMT,Jamaica,75 St-Elderts Ln,Q,J Z,Elevated,40.691324,-73.867139,Jamaica,Manhattan,"N"
77 ST-6,398,627,IRT,Lexington Av,77 St,M,6,Subway,40.77362,-73.959874,Uptown & The Bronx,Downtown,"N"
77 ST-R,37,R43,BMT,4th Av,77 St,Bk,R,Subway,40.629742,-74.02551,Manhattan,95 St,"N"
79 ST-1,312,122,IRT,Broadway - 7Av,79 St,M,1,Subway,40.783934,-73.979917,Uptown & The Bronx,Downtown,"N"
79 ST-D,65,B18,BMT,West End,79 St,Bk,D,Elevated,40.613501,-74.00061,Manhattan,Coney Island,"N"
8 AV-N,71,N02,BMT,Sea Beach,8 Av,Bk,N,Open Cut,40.635064,-74.011719,Manhattan,Coney Island,"N"
8 ST-NYU-NRW,16,R21,BMT,Broadway - Brighton,8 St-NYU,M,R W,Subway,40.730328,-73.992629,Uptown & Queens,Downtown & Brooklyn,"Y"
80 ST-A,190,A59,IND,Liberty Av,80 St,Q,A,Elevated,40.679371,-73.858992,Manhattan,Lefferts - Rockaways,"N"
81 ST-MUSEUM-BC,159,A21,IND,8th Av - Fulton St,81 St-Museum of Natural History,M,B C,Subway,40.781433,-73.972143,Uptown & The Bronx,Downtown & Brooklyn,"N"
82 ST-JACKSON H-7,453,709,IRT,Flushing,82 St-Jackson Hts,Q,7,Elevated,40.747659,-73.883697,Flushing,Manhattan,"N"
85 ST-FOREST PK-J,84,J16,BMT,Jamaica,85 St-Forest Pkwy,Q,J,Elevated,40.692435,-73.86001,Jamaica,Manhattan,"N"
86 ST-1,311,121,IRT,Broadway - 7Av,86 St,M,1,Subway,40.788644,-73.976218,Uptown & The Bronx,Downtown,"N"
86 ST-2 AVE-Q,476,Q04,IND,Second Av,86 St,M,Q,Subway,40.777891,-73.951787,Uptown,Downtown & Brooklyn,"N"
86 ST-456,397,626,IRT,Lexington Av,86 St,M,4 5 6,Subway,40.779492,-73.955589,Uptown & The Bronx,Downtown & Brooklyn,"N"
86 ST-BC,158,A20,IND,8th Av - Fulton St,86 St,M,B C,Subway,40.785868,-73.968916,Uptown & The Bronx,Downtown & Brooklyn,"N"
86 ST-N,79,N10,BMT,Sea Beach,86 St,Bk,N,Open Cut,40.592721,-73.97823,Manhattan,Coney Island,"N"
86 ST-R,38,R44,BMT,4th Av,86 St,Bk,R,Subway,40.622687,-74.028398,Manhattan,95 St,"N"
88 ST-A,191,A60,IND,Liberty Av,88 St,Q,A,Elevated,40.679843,-73.85147,Manhattan,Lefferts - Rockaways,"N"
9 AV-D,59,B12,BMT,West End,9 Av,Bk,D,Open Cut,40.646292,-73.994324,Manhattan,Coney Island,"N"
90 ST-ELMHURST-7,452,708,IRT,Flushing,90 St-Elmhurst Av,Q,7,Elevated,40.748408,-73.876613,Flushing,Manhattan,"N"
96 ST-123,310,120,IRT,Broadway - 7Av,96 St,M,1 2 3,Subway,40.793919,-73.972323,Uptown & The Bronx,Downtown & Brooklyn,"N"
96 ST-2 AVE-Q,475,Q05,IND,Second Av,96 St,M,Q,Subway,40.784318,-73.947152,,Downtown & Brooklyn,"N"
96 ST-6,396,625,IRT,Lexington Av,96 St,M,6,Subway,40.785672,-73.95107,Uptown & The Bronx,Downtown,"N"
96 ST-BC,157,A19,IND,8th Av - Fulton St,96 St,M,B C,Subway,40.791642,-73.964696,Uptown & The Bronx,Downtown & Brooklyn,"N"
9TH STREET-1-PATH,913,,,,PATH-9th St,M,,,,,,,"Y"
ALABAMA AV-J,91,J24,BMT,Jamaica,Alabama Av,Bk,J,Elevated,40.676992,-73.898654,Jamaica,Manhattan,"N"
ALLERTON AV-25,423,210,IRT,Lenox - White Plains Rd,Allerton Av,Bx,2 5,Elevated,40.865462,-73.867352,Wakefield - 241 St,Manhattan,"N"
ANNADALE-1-SIR,515,S17,SIR,Staten Island,Annadale,SI,SIR,Open Cut,40.54046,-74.178217,St George,Tottenville,"N"
AQUEDUCT N.COND-A,197,H02,IND,Rockaway,Aqueduct-N Conduit Av,Q,A,At Grade,40.668234,-73.834058,Manhattan,Rockaways,"N"
AQUEDUCT RACETR-A,196,H01,IND,Rockaway,Aqueduct Racetrack,Q,A,At Grade,40.672097,-73.835919,Manhattan,Rockaways,"N"
ARTHUR KILL-1-SIR,523,S11,SIR,Staten Island,Arthur Kill,SI,SIR,At Grade,40.516578,-74.242096,St George,Tottenville,"N"
ASTOR PL-6,407,636,IRT,Lexington Av,Astor Pl,M,6,Subway,40.730054,-73.99107,Uptown & The Bronx,Downtown,"Y"
ASTORIA BLVD-NQW,2,R03,BMT,Astoria,Astoria Blvd,Q,N W,Elevated,40.770258,-73.917843,Ditmars Blvd,Manhattan,"N"
ASTORIA DITMARS-NQW,1,R01,BMT,Astoria,Astoria-Ditmars Blvd,Q,N W,Elevated,40.775036,-73.912034,,Manhattan,"N"
ATL AV-BARCLAY-2345BDNQR,617,R31,BMT,4th Av,Atlantic Av-Barclays Ctr,Bk,2 3 4 5 B D N Q R,Subway,40.683666,-73.97881,Manhattan,Coney Island - Bay Ridge,"N"
ATLANTIC AV-L,133,L24,BMT,Canarsie,Atlantic Av,Bk,L,Elevated,40.675345,-73.903097,Manhattan,Canarsie - Rockaway Parkway,"N"
AVENUE H-BQ,48,D32,BMT,Broadway - Brighton,Avenue H,Bk,Q,Open Cut,40.62927,-73.961639,Manhattan,Brighton Beach & Coney Island,"N"
AVENUE I-F,246,F31,IND,6th Av - Culver,Avenue I,Bk,F,Elevated,40.625322,-73.976127,Manhattan,Coney Island,"N"
AVENUE J-BQ,49,D33,BMT,Broadway - Brighton,Avenue J,Bk,Q,Open Cut,40.625039,-73.960803,Manhattan,Brighton Beach & Coney Island,"N"
AVENUE M-BQ,50,D34,BMT,Broadway - Brighton,Avenue M,Bk,Q,Open Cut,40.617618,-73.959399,Manhattan,Brighton Beach & Coney Island,"N"
AVENUE N-F,248,F33,IND,6th Av - Culver,Avenue N,Bk,F,Elevated,40.61514,-73.974197,Manhattan,Coney Island,"N"
AVENUE P-F,249,F34,IND,6th Av - Culver,Avenue P,Bk,F,Elevated,40.608944,-73.973022,Manhattan,Coney Island,"N"
AVENUE U-BQ,52,D37,BMT,Broadway - Brighton,Avenue U,Bk,Q,Open Cut,40.5993,-73.955929,Manhattan,Brighton Beach & Coney Island,"N"
AVENUE U-F,251,F36,IND,6th Av - Culver,Avenue U,Bk,F,Elevated,40.596063,-73.973357,Manhattan,Coney Island,"N"
AVENUE U-N,78,N09,BMT,Sea Beach,Avenue U,Bk,N,Open Cut,40.597473,-73.979137,Manhattan,Coney Island,"N"
AVENUE X-F,252,F38,IND,6th Av - Culver,Avenue X,Bk,F,Elevated,40.58962,-73.97425,Manhattan,Coney Island,"N"
B'WAY-LAFAYETTE-BDFQ6,619,D21,IND,6th Av - Culver,Broadway-Lafayette St,M,B D F M,Subway,40.725297,-73.996204,Uptown & The Bronx - Queens,Downtown & Brooklyn,"Y"
BAY 50 ST-D,70,B23,BMT,West End,Bay 50 St,Bk,D,Elevated,40.588841,-73.983765,Manhattan,Coney Island,"N"
BAY PKWY-D,68,B21,BMT,West End,Bay Pkwy,Bk,D,Elevated,40.601875,-73.993728,Manhattan,Coney Island,"N"
BAY PKWY-F,247,F32,IND,6th Av - Culver,Bay Pkwy,Bk,F,Elevated,40.620769,-73.975264,Manhattan,Coney Island,"N"
BAY PKWY-N,76,N07,BMT,Sea Beach,Bay Pkwy,Bk,N,Open Cut,40.611815,-73.981848,Manhattan,Coney Island,"N"
BAY RIDGE AV-R,36,R42,BMT,4th Av,Bay Ridge Av,Bk,R,Subway,40.634967,-74.023377,Manhattan,95 St,"N"
BAY RIDGE-95 ST-R,39,R45,BMT,4th Av,Bay Ridge-95 St,Bk,R,Subway,40.616622,-74.030876,Manhattan,,"N"
BAY TERRACE-1-SIR,512,S20,SIR,Staten Island,Bay Terrace,SI,SIR,Embankment,40.5564,-74.136907,St George,Tottenville,"N"
BAYCHESTER AV-5,443,502,IRT,Dyre Av,Baychester Av,Bx,5,Open Cut,40.878663,-73.838591,Eastchester - Dyre Av,Manhattan,"N"
BEACH 105 ST-AS,202,H14,IND,Rockaway,Beach 105 St,Q,A S,Viaduct,40.583209,-73.827559,Manhattan,Rockaway Park,"N"
BEACH 25 ST-A,208,H10,IND,Rockaway,Beach 25 St,Q,A,Viaduct,40.600066,-73.761353,Manhattan,Far Rockaway,"N"
BEACH 36 ST-A,207,H09,IND,Rockaway,Beach 36 St,Q,A,Viaduct,40.595398,-73.768175,Manhattan,Far Rockaway,"N"
BEACH 44 ST-A,206,H08,IND,Rockaway,Beach 44 St,Q,A,Viaduct,40.592943,-73.776013,Manhattan,Far Rockaway,"N"
BEACH 60 ST-A,205,H07,IND,Rockaway,Beach 60 St,Q,A,Viaduct,40.592374,-73.788522,Manhattan,Far Rockaway,"N"
BEACH 67 ST-A,204,H06,IND,Rockaway,Beach 67 St,Q,A,Viaduct,40.590927,-73.796924,Manhattan,Far Rockaway,"N"
BEACH 90 ST-AS,200,H12,IND,Rockaway,Beach 90 St,Q,A S,Viaduct,40.588034,-73.813641,Manhattan,Rockaway Park,"N"
BEACH 98 ST-AS,201,H13,IND,Rockaway,Beach 98 St,Q,A S,Viaduct,40.585307,-73.820558,Manhattan,Rockaway Park,"N"
BEDFORD AV-L,120,L08,BMT,Canarsie,Bedford Av,Bk,L,Subway,40.717304,-73.956872,Manhattan,Canarsie - Rockaway Parkway,"N"
BEDFORD PK BLVD-4,380,405,IRT,Jerome Av,Bedford Park Blvd-Lehman College,Bx,4,Elevated,40.873412,-73.890064,Woodlawn,Manhattan,"N"
BEDFORD PK BLVD-BD,211,D03,IND,Concourse,Bedford Park Blvd,Bx,B D,Subway,40.873244,-73.887138,Norwood - 205 St,Manhattan,"N"
BEDFORD-NOSTRAN-G,289,G33,IND,Crosstown,Bedford-Nostrand Avs,Bk,G,Subway,40.689627,-73.953522,Queens,Church Av,"N"
BERGEN ST-23,339,236,IRT,Eastern Pky,Bergen St,Bk,2 3,Subway,40.680829,-73.975098,Manhattan,Flatbush - New Lots,"N"
BERGEN ST-FG,236,F20,IND,6th Av - Culver,Bergen St,Bk,F G,Subway,40.686145,-73.990862,Manhattan - Queens,Church Av - Coney Island,"N"
BEVERLEY ROAD-BQ,45,D29,BMT,Broadway - Brighton,Beverley Rd,Bk,Q,Open Cut,40.644031,-73.964492,Manhattan,Brighton Beach & Coney Island,"N"
BEVERLY RD-25,357,245,IRT,Nostrand,Beverly Rd,Bk,2 5,Subway,40.645098,-73.948959,Manhattan,Flatbush,"N"
BLEECKER ST-6DF,619,637,IRT,Lexington Av,Bleecker St,M,6,Subway,40.725915,-73.994659,Uptown & The Bronx,Downtown,"Y"
BOROUGH HALL-2345R,620,423,IRT,Eastern Pky,Borough Hall,Bk,4 5,Subway,40.692404,-73.990151,Manhattan,Flatbush - Utica,"N"
BOWERY-JZ,103,M19,BMT,Jamaica,Bowery,M,J Z,Subway,40.72028,-73.993915,Brooklyn,Broad St,"Y"
BOWLING GREEN-45,414,420,IRT,Lexington Av,Bowling Green,M,4 5,Subway,40.704817,-74.014065,Uptown & The Bronx,Brooklyn,"Y"
BRIARWOOD-EF,258,F05,IND,Queens Blvd,Briarwood,Q,E F,Subway,40.709179,-73.820574,Jamaica,Manhattan,"N"
BRIGHTON BEACH-BQ,55,D40,BMT,Broadway - Brighton,Brighton Beach,Bk,B Q,Elevated,40.577621,-73.961376,Manhattan,Coney Island,"N"
BROAD CHANNEL-AS,199,H04,IND,Rockaway,Broad Channel,Q,A S,At Grade,40.608382,-73.815925,Manhattan,Rockaways,"N"
BROAD ST-JZ,107,M23,BMT,Jamaica,Broad St,M,J Z,Subway,40.706476,-74.011056,Brooklyn,,"Y"
BROADWAY JCT-ACJLZ,621,J27,BMT,Jamaica,Broadway Junction,Bk,J Z,Elevated,40.679498,-73.904512,Jamaica,Manhattan,"N"
BROADWAY-G,286,G30,IND,Crosstown,Broadway,Bk,G,Subway,40.706092,-73.950308,Queens,Church Av,"N"
BROADWAY-NQW,4,R05,BMT,Astoria,Broadway,Q,N W,Elevated,40.76182,-73.925508,Astoria - Ditmars Blvd,Manhattan,"N"
BRONX PARK EAST-25,425,212,IRT,Lenox - White Plains Rd,Bronx Park East,Bx,2 5,Elevated,40.848828,-73.868457,Wakefield - 241 St,Manhattan,"N"
BROOK AV-6,376,618,IRT,Pelham,Brook Av,Bx,6,Subway,40.807566,-73.91924,Pelham Bay Park,Manhattan,"N"
BROOKLYN BRIDGE-456JZ,622,640,IRT,Lexington Av,Brooklyn Bridge-City Hall,M,4 5 6,Subway,40.713065,-74.004131,Uptown & The Bronx,Downtown & Brooklyn,"Y"
BUHRE AV-6,361,602,IRT,Pelham,Buhre Av,Bx,6,Elevated,40.84681,-73.832569,Pelham Bay Park,Manhattan,"N"
BURKE AV-25,422,209,IRT,Lenox - White Plains Rd,Burke Av,Bx,2 5,Elevated,40.871356,-73.867164,Wakefield - 241 St,Manhattan,"N"
BURNSIDE AV-4,384,409,IRT,Jerome Av,Burnside Av,Bx,4,Elevated,40.853453,-73.907684,Woodlawn,Manhattan,"N"
BUSHWICK AV-L,131,L21,BMT,Canarsie,Bushwick Av-Aberdeen St,Bk,L,Subway,40.682829,-73.905249,Manhattan,Canarsie - Rockaway Parkway,"N"
CANAL ST-1,325,135,IRT,Broadway - 7Av,Canal St,M,1,Subway,40.722854,-74.006277,Uptown & The Bronx,Downtown,"Y"
CANAL ST-ACE,169,A34,IND,8th Av - Fulton St,Canal St,M,A C E,Subway,40.720824,-74.005229,Uptown - Queens,Downtown & Brooklyn,"Y"
CANAL ST-JNQRZ6W,623,R23,BMT,Broadway,Canal St,M,6 J N Q R W Z,Subway,40.719527,-74.001775,Uptown & Queens,Downtown & Brooklyn,"Y"
CANARSIE-ROCKAW-L,138,L29,BMT,Canarsie,Canarsie-Rockaway Pkwy,Bk,L,At Grade,40.646654,-73.90185,Manhattan,,"N"
CARROLL ST-FG,237,F21,IND,6th Av - Culver,Carroll St,Bk,F G,Subway,40.680303,-73.995048,Manhattan - Queens,Church Av - Coney Island,"N"
CASTLE HILL AV-6,365,607,IRT,Pelham,Castle Hill Av,Bx,6,Elevated,40.834255,-73.851222,Pelham Bay Park,Manhattan,"N"
CATHEDRAL PKWY-1,308,118,IRT,Broadway - 7Av,Cathedral Pkwy (110 St),M,1,Subway,40.803967,-73.966847,Uptown & The Bronx,Downtown,"N"
CATHEDRAL PKWY-BC,155,A17,IND,8th Av - Fulton St,Cathedral Pkwy (110 St),M,B C,Subway,40.800603,-73.958161,Uptown & The Bronx,Downtown & Brooklyn,"N"
CENTRAL AV-M,114,M10,BMT,Myrtle Av,Central Av,Bk,M,Elevated,40.697857,-73.927397,Manhattan,Metropolitan Av,"N"
CENTRAL PK N110-23,441,227,IRT,Lenox - White Plains Rd,Central Park North (110 St),M,2 3,Subway,40.799075,-73.951822,Uptown & The Bronx,Downtown & Brooklyn,"N"
CHAMBERS ST-123,327,137,IRT,Broadway - 7Av,Chambers St,M,1 2 3,Subway,40.715478,-74.009266,Uptown & The Bronx,Downtown & Brooklyn,"Y"
CHAMBERS ST-ACE23,624,A36,IND,8th Av - Fulton St,Chambers St,M,A C 2 3,Subway,40.714111,-74.008585,Uptown,Downtown & Brooklyn,"Y"
CHAMBERS ST-JZ456,622,M21,BMT,Jamaica,Chambers St,M,J Z,Subway,40.713243,-74.003401,Brooklyn,Broad St,"Y"
CHAUNCEY ST-JZ,93,J28,BMT,Jamaica,Chauncey St,Bk,J Z,Elevated,40.682893,-73.910456,Jamaica,Manhattan,"N"
CHRISTOPHER ST-1,323,133,IRT,Broadway - 7Av,Christopher St-Sheridan Sq,M,1,Subway,40.733422,-74.002906,Uptown & The Bronx,Downtown,"Y"
CHRISTOPHER ST-1-PATH,914,,,,PATH-Christopher St,M,,,,,,,"Y"
CHURCH AV-25,356,244,IRT,Nostrand,Church Av,Bk,2 5,Subway,40.650843,-73.949575,Manhattan,Flatbush,"N"
CHURCH AV-BQ,44,D28,BMT,Broadway - Brighton,Church Av,Bk,B Q,Open Cut,40.650527,-73.962982,Manhattan,Brighton Beach & Coney Island,"N"
CHURCH AV-FG,243,F27,IND,6th Av - Culver,Church Av,Bk,F G,Subway,40.644041,-73.979678,Manhattan,Coney Island,"N"
CITY / BUS-1-PATH,918,,,,,J,,,,,,,"N"
CITY HALL-NRW,20,R24,BMT,Broadway,City Hall,M,R W,Subway,40.713282,-74.006978,Uptown & Queens,Downtown & Brooklyn,"Y"
CLARK ST-23,334,231,IRT,Clark St,Clark St,Bk,2 3,Subway,40.697466,-73.993086,Manhattan,Flatbush - New Lots,"N"
CLASSON AV-G,290,G34,IND,Crosstown,Classon Av,Bk,G,Subway,40.688873,-73.96007,Queens,Church Av,"N"
CLEVELAND ST-J,89,J22,BMT,Jamaica,Cleveland St,Bk,J,Elevated,40.679947,-73.884639,Jamaica,Manhattan,"N"
CLINTON-WASH AV-C,177,A44,IND,8th Av - Fulton St,Clinton-Washington Avs,Bk,C,Subway,40.683263,-73.965838,Manhattan,Euclid Av,"N"
CLINTON-WASH AV-G,291,G35,IND,Crosstown,Clinton-Washington Avs,Bk,G,Subway,40.688089,-73.966839,Queens,Church Av,"N"
CONEY IS-STILLW-DFNQ,58,D43,BMT,Sea Beach / West End / Culver / Brighton,Coney Island-Stillwell Av,Bk,D F N Q,Viaduct,40.577422,-73.981233,Manhattan,,"N"
CORTELYOU RD-BQ,46,D30,BMT,Broadway - Brighton,Cortelyou Rd,Bk,Q,Open Cut,40.640927,-73.963891,Manhattan,Brighton Beach & Coney Island,"N"
CORTLANDT ST-RNW,624,R25,BMT,Broadway,Cortlandt St,M,R W,Subway,40.710668,-74.011029,Uptown & Queens,Downtown & Brooklyn,"Y"
COURT SQ-7,606,719,IRT,Flushing,Court Sq,Q,7,Elevated,40.747023,-73.945264,Flushing,Manhattan,"N"
COURT SQ-EMG,606,F09,IND,Queens Blvd,Court Sq-23 St,Q,E M,Subway,40.747846,-73.946,Forest Hills - Jamaica,Manhattan,"N"
CRESCENT ST-JZ,87,J20,BMT,Jamaica,Crescent St,Bk,J Z,Elevated,40.683194,-73.873785,Jamaica,Manhattan,"N"
CROWN HTS-UTICA-34,345,250,IRT,Eastern Pky,Crown Hts-Utica Av,Bk,3 4,Subway,40.668897,-73.932942,Manhattan,New Lots,"N"
CYPRESS AV-6,375,617,IRT,Pelham,Cypress Av,Bx,6,Subway,40.805368,-73.914042,Pelham Bay Park,Manhattan,"N"
CYPRESS HILLS-J,86,J19,BMT,Jamaica,Cypress Hills,Bk,J,Elevated,40.689941,-73.87255,Jamaica,Manhattan,"N"
DEKALB AV-BDNQR,26,R30,BMT,Broadway - Brighton,DeKalb Av,Bk,B Q R,Subway,40.690635,-73.981824,Manhattan,Coney Island - Bay Ridge,"N"
DEKALB AV-L,127,L16,BMT,Canarsie,DeKalb Av,Bk,L,Subway,40.703811,-73.918425,Manhattan,Canarsie - Rockaway Parkway,"N"
DELANCEY/ESSEX-FJMZ,625,M18,BMT,Jamaica,Delancey St-Essex St,M,J M Z,Subway,40.718315,-73.987437,Brooklyn,Broad St (JZ) - Uptown (M),"Y"
DITMAS AV-F,244,F29,IND,6th Av - Culver,Ditmas Av,Bk,F,Elevated,40.636119,-73.978172,Manhattan,Coney Island,"N"
DONGAN HILLS-1-SIR,507,S25,SIR,Staten Island,Dongan Hills,SI,SIR,Embankment,40.588849,-74.09609,St George,Tottenville,"N"
DYCKMAN ST-1,299,109,IRT,Broadway - 7Av,Dyckman St,M,1,Elevated,40.860531,-73.925536,Uptown & The Bronx,Downtown,"N"
DYCKMAN ST-A,144,A03,IND,8th Av - Fulton St,Dyckman St,M,A,Subway,40.865491,-73.927271,207 St,Downtown & Brooklyn,"N"
E 143/ST MARY'S-6,374,616,IRT,Pelham,E 143 St-St Mary's St,Bx,6,Subway,40.808719,-73.907657,Pelham Bay Park,Manhattan,"N"
E 149 ST-6,373,615,IRT,Pelham,E 149 St,Bx,6,Subway,40.812118,-73.904098,Pelham Bay Park,Manhattan,"N"
E 180 ST-25,426,213,IRT,Lenox - White Plains Rd,E 180 St,Bx,2 5,Elevated,40.841894,-73.873488,Wakefield - Eastchester,Manhattan,"N"
EAST 105 ST-L,137,L28,BMT,Canarsie,East 105 St,Bk,L,At Grade,40.650573,-73.899485,Manhattan,Canarsie - Rockaway Parkway,"N"
EAST BROADWAY-F,234,F16,IND,6th Av - Culver,East Broadway,M,F,Subway,40.713715,-73.990173,Uptown & Queens,Brooklyn,"Y"
EASTCHSTER/DYRE-5,442,501,IRT,Dyre Av,Eastchester-Dyre Av,Bx,5,At Grade,40.8883,-73.830834,,Manhattan,"N"
EASTN PKWY-MUSM-23,341,238,IRT,Eastern Pky,Eastern Pkwy-Brooklyn Museum,Bk,2 3,Subway,40.671987,-73.964375,Manhattan,Flatbush - New Lots,"N"
ELDER AV-6,369,611,IRT,Pelham,Elder Av,Bx,6,Elevated,40.828584,-73.879159,Pelham Bay Park,Manhattan,"N"
ELMHURST AV-MR,266,G13,IND,Queens Blvd,Elmhurst Av,Q,M R,Subway,40.742454,-73.882017,Forest Hills,Manhattan,"N"
ELTINGVILLE-1-SIR,514,S18,SIR,Staten Island,Eltingville,SI,SIR,Embankment,40.544601,-74.16457,St George,Tottenville,"N"
EUCLID AV-AC,188,A55,IND,8th Av - Fulton St,Euclid Av,Bk,A C,Subway,40.675377,-73.872106,Manhattan,Lefferts - Rockaways,"N"
EXCHANGE PLACE-1-PATH,902,,,,,J,,,,,,,"N"
FAR ROCKAWAY-A,209,H11,IND,Rockaway,Far Rockaway-Mott Av,Q,A,Viaduct,40.603995,-73.755405,Manhattan,,"N"
FLATBUSH AV-B.C-25,359,247,IRT,Nostrand,Flatbush Av-Brooklyn College,Bk,2 5,Subway,40.632836,-73.947642,Manhattan,,"N"
FLUSHING AV-G,287,G31,IND,Crosstown,Flushing Av,Bk,G,Subway,40.700377,-73.950234,Queens,Church Av,"N"
FLUSHING AV-JM,98,M12,BMT,Jamaica,Flushing Av,Bk,J M,Elevated,40.70026,-73.941126,Jamaica - Middle Village,Manhattan,"N"
FLUSHING-MAIN-7,447,701,IRT,Flushing,Flushing-Main St,Q,7,Subway,40.7596,-73.83003,,Manhattan,"N"
FORDHAM RD-4,382,407,IRT,Jerome Av,Fordham Rd,Bx,4,Elevated,40.862803,-73.901034,Woodlawn,Manhattan,"N"
FORDHAM RD-BD,213,D05,IND,Concourse,Fordham Rd,Bx,B D,Subway,40.861296,-73.897749,Bedford Pk Blvd & 205 St,Manhattan,"N"
FOREST AVE-M,110,M05,BMT,Myrtle Av,Forest Av,Q,M,Elevated,40.704423,-73.903077,Manhattan,Metropolitan Av,"N"
FOREST HILLS 71-EFMR,261,G08,IND,Queens Blvd,Forest Hills-71 Av,Q,E F M R,Subway,40.721691,-73.844521,Jamaica,Manhattan,"N"
FRANKLIN AV-2345S,626,239,IRT,Eastern Pky,Franklin Avenue-Medgar Evers College,Bk,2 3 4 5,Subway,40.670682,-73.958131,Manhattan,Flatbush - Utica - New Lots,"N"
FRANKLIN AV-ACS,627,A45,IND,8th Av - Fulton St,Franklin Av,Bk,C,Subway,40.68138,-73.956848,Manhattan,Euclid Av,"N"
FRANKLIN ST-1,326,136,IRT,Broadway - 7Av,Franklin St,M,1,Subway,40.719318,-74.006886,Uptown & The Bronx,Downtown,"Y"
FREEMAN ST-25,429,216,IRT,Lenox - White Plains Rd,Freeman St,Bx,2 5,Elevated,40.829993,-73.891865,Wakefield - Eastchester,Manhattan,"N"
FRESH POND RD-M,109,M04,BMT,Myrtle Av,Fresh Pond Rd,Q,M,Elevated,40.706186,-73.895877,Manhattan,Metropolitan Av,"N"
FT HAMILTON PKY-D,60,B13,BMT,West End,Fort Hamilton Pkwy,Bk,D,Elevated,40.640914,-73.994304,Manhattan,Coney Island,"N"
FT HAMILTON PKY-FG,242,F26,IND,6th Av - Culver,Fort Hamilton Pkwy,Bk,F G,Subway,40.650782,-73.975776,Manhattan - Queens,Church Av - Coney Island,"N"
FT HAMILTON PKY-N,72,N03,BMT,Sea Beach,Fort Hamilton Pkwy,Bk,N,Open Cut,40.631386,-74.005351,Manhattan,Coney Island,"N"
FULTON ST-2345ACJZ,628,A38,IND,8th Av - Fulton St,Fulton St,M,2 3 4 5 A C J Z,Subway,40.710197,-74.007691,Uptown,Brooklyn,"Y"
FULTON ST-G,292,G36,IND,Crosstown,Fulton St,Bk,G,Subway,40.687119,-73.975375,Queens,Church Av,"N"
GATES AV-JZ,95,J30,BMT,Jamaica,Gates Av,Bk,J Z,Elevated,40.68963,-73.92227,Jamaica,Manhattan,"N"
GRAHAM AV-L,122,L11,BMT,Canarsie,Graham Av,Bk,L,Subway,40.714565,-73.944053,Manhattan,Canarsie - Rockaway Parkway,"N"
GRAND ARMY PLAZ-23,340,237,IRT,Eastern Pky,Grand Army Plaza,Bk,2 3,Subway,40.675235,-73.971046,Manhattan,Flatbush - New Lots,"N"
GRAND ST-BD,231,D22,IND,6th Av - Culver,Grand St,M,B D,Subway,40.718267,-73.993753,Uptown & The Bronx,Brooklyn,"Y"
GRAND ST-L,123,L12,BMT,Canarsie,Grand St,Bk,L,Subway,40.711926,-73.94067,Manhattan,Canarsie - Rockaway Parkway,"N"
GRAND-NEWTOWN-MR,265,G12,IND,Queens Blvd,Grand Av-Newtown,Q,M R,Subway,40.737015,-73.877223,Forest Hills,Manhattan,"N"
GRANT AV-A,189,A57,IND,Liberty Av,Grant Av,Bk,A,Subway,40.677044,-73.86505,Manhattan,Lefferts - Rockaways,"N"
GRANT CITY-1-SIR,509,S23,SIR,Staten Island,Grant City,SI,SIR,Open Cut,40.578965,-74.109704,St George,Tottenville,"N"
GRASMERE-1-SIR,505,S27,SIR,Staten Island,Grasmere,SI,SIR,Open Cut,40.603117,-74.084087,St George,Tottenville,"N"
GRD CNTRL-42 ST-4567S,610,631,IRT,Lexington Av,Grand Central-42 St,M,4 5 6 7 S,Subway,40.751776,-73.976848,Uptown & The Bronx,Downtown & Brooklyn,"Y"
GREAT KILLS-1-SIR,513,S19,SIR,Staten Island,Great Kills,SI,SIR,Open Cut,40.551231,-74.151399,St George,Tottenville,"N"
GREENPOINT AV-G,283,G26,IND,Crosstown,Greenpoint Av,Bk,G,Subway,40.731352,-73.954449,Queens,Church Av,"N"
GROVE STREET-1-PATH,903,,,,,J,,,,,,,"N"
GUN HILL RD-25,421,208,IRT,Lenox - White Plains Rd,Gun Hill Rd,Bx,2 5,Elevated,40.87785,-73.866256,Wakefield - 241 St,Manhattan,"N"
GUN HILL RD-5,444,503,IRT,Dyre Av,Gun Hill Rd,Bx,5,Open Cut,40.869526,-73.846384,Eastchester - Dyre Av,Manhattan,"N"
HALSEY ST-J,94,J29,BMT,Jamaica,Halsey St,Bk,J,Elevated,40.68637,-73.916559,Jamaica,Manhattan,"N"
HALSEY ST-L,129,L19,BMT,Canarsie,Halsey St,Q,L,Subway,40.695602,-73.904084,Manhattan,Canarsie - Rockaway Parkway,"N"
HARLEM 148 ST-3,436,301,IRT,Lenox - White Plains Rd,Harlem-148 St,M,3,Subway,40.82388,-73.93647,,Downtown & Brooklyn,"N"
HARRISON-1-PATH,905,,,,,J,,,,,,,"N"
HEWES ST-JM,100,M14,BMT,Jamaica,Hewes St,Bk,J M,Elevated,40.70687,-73.953431,Jamaica - Middle Village,Manhattan,"N"
HIGH ST-AC,173,A40,IND,8th Av - Fulton St,High St,Bk,A C,Subway,40.699337,-73.990531,Manhattan,Euclid - Lefferts - Rockaways,"N"
HOUSTON ST-1,324,134,IRT,Broadway - 7Av,Houston St,M,1,Subway,40.728251,-74.005367,Uptown & The Bronx,Downtown,"Y"
HOWARD BCH JFK-A,198,H03,IND,Rockaway,Howard Beach-JFK Airport,Q,A,At Grade,40.660476,-73.830301,Manhattan,Rockaways,"N"
HOYT ST-23,336,233,IRT,Eastern Pky,Hoyt St,Bk,2 3,Subway,40.690545,-73.985065,Manhattan,Flatbush - New Lots,"N"
HOYT-SCHER-ACG,175,A42,IND,8th Av - Fulton St,Hoyt-Schermerhorn Sts,Bk,A C G,Subway,40.688484,-73.985001,Manhattan - Church Av,Euclid Av & Queens - Court Sq,"N"
HUGUENOT-1-SIR,516,S16,SIR,Staten Island,Huguenot,SI,SIR,Open Cut,40.533674,-74.191794,St George,Tottenville,"N"
HUNTERS PT AV-7,463,720,IRT,Flushing,Hunters Point Av,Q,7,Subway,40.742216,-73.948916,Flushing,Manhattan,"N"
HUNTS POINT AV-6,371,613,IRT,Pelham,Hunts Point Av,Bx,6,Subway,40.820948,-73.890549,Pelham Bay Park,Manhattan,"N"
INTERVALE AV-25,431,218,IRT,Lenox - White Plains Rd,Intervale Av,Bx,2 5,Elevated,40.822181,-73.896736,Wakefield - Eastchester,Manhattan,"N"
INWOOD-207 ST-A,143,A02,IND,8th Av - Fulton St,Inwood-207 St,M,A,Subway,40.868072,-73.919899,,Downtown & Brooklyn,"N"
JACKSON AV-25,433,220,IRT,Lenox - White Plains Rd,Jackson Av,Bx,2 5,Elevated,40.81649,-73.907807,Wakefield - Eastchester,Manhattan,"N"
JAMAICA 179 ST-F,254,F01,IND,Queens Blvd,Jamaica-179 St,Q,F,Subway,40.712646,-73.783817,,Manhattan,"N"
JAMAICA CENTER-EJZ,278,G05,IND,Queens - Archer,Jamaica Center-Parsons/Archer,Q,E J Z,Subway,40.702147,-73.801109,,Manhattan,"N"
JAMAICA VAN WK-E,280,G07,IND,Queens - Archer,Jamaica-Van Wyck,Q,E,Subway,40.702566,-73.816859,Jamaica Center,Manhattan,"N"
JAY ST-METROTEC-ACF,636,A41,IND,8th Av - Fulton St,Jay St-MetroTech,Bk,A C F,Subway,40.692338,-73.987342,Manhattan,Euclid - Lefferts - Rockaways - Coney Island,"N"
JAY ST-METROTEC-R,636,R29,BMT,Broadway,Jay St-MetroTech,Bk,R,Subway,40.69218,-73.985942,Manhattan,Bay Ridge - 95 St,"N"
JEFFERSON AV-1-SIR,508,S24,SIR,Staten Island,Jefferson Av,SI,SIR,Embankment,40.583591,-74.103338,St George,Tottenville,"N"
JEFFERSON ST-L,126,L15,BMT,Canarsie,Jefferson St,Bk,L,Subway,40.706607,-73.922913,Manhattan,Canarsie - Rockaway Parkway,"N"
JKSN HT-ROOSVLT-EFMR7,616,G14,IND,Queens Blvd,Jackson Hts-Roosevelt Av,Q,E F M R 7,Subway,40.746644,-73.891338,Forest Hills - Jamaica,Manhattan,"N"
JOURNAL SQUARE-1-PATH,904,,,,,J,,,,,,,"N"
JUNCTION BLVD-7,451,707,IRT,Flushing,Junction Blvd,Q,7,Elevated,40.749145,-73.869527,Flushing,Manhattan,"N"
JUNIUS ST-3,349,254,IRT,Eastern Pky,Junius St,Bk,3,Elevated,40.663515,-73.902447,Manhattan,New Lots,"N"
KEW GARDENS-EF,259,F06,IND,Queens Blvd,Kew Gardens-Union Tpke,Q,E F,Subway,40.714441,-73.831008,Jamaica,Manhattan,"N"
KINGS HWY-BQ,51,D35,BMT,Broadway - Brighton,Kings Hwy,Bk,B Q,Open Cut,40.60867,-73.957734,Manhattan,Brighton Beach & Coney Island,"N"
KINGS HWY-F,250,F35,IND,6th Av - Culver,Kings Hwy,Bk,F,Elevated,40.603217,-73.972361,Manhattan,Coney Island,"N"
KINGS HWY-N,77,N08,BMT,Sea Beach,Kings Hwy,Bk,N,Open Cut,40.603923,-73.980353,Manhattan,Coney Island,"N"
KINGSBRIDGE RD-4,381,406,IRT,Jerome Av,Kingsbridge Rd,Bx,4,Elevated,40.86776,-73.897174,Woodlawn,Manhattan,"N"
KINGSBRIDGE RD-BD,212,D04,IND,Concourse,Kingsbridge Rd,Bx,B D,Subway,40.866978,-73.893509,Bedford Pk Blvd & 205 St,Manhattan,"N"
KINGSTON AV-3,344,249,IRT,Eastern Pky,Kingston Av,Bk,3,Subway,40.669399,-73.942161,Manhattan,New Lots,"N"
KINGSTON-THROOP-C,180,A47,IND,8th Av - Fulton St,Kingston-Throop Avs,Bk,C,Subway,40.679921,-73.940858,Manhattan,Euclid Av,"N"
KNICKERBOCKER-M,113,M09,BMT,Myrtle Av,Knickerbocker Av,Bk,M,Elevated,40.698664,-73.919711,Manhattan,Metropolitan Av,"N"
KOSCIUSZKO ST-J,96,J31,BMT,Jamaica,Kosciuszko St,Bk,J,Elevated,40.693342,-73.928814,Jamaica,Manhattan,"N"
LACKAWANNA-1-PATH,915,,,,,J,,,,,,,"N"
LAFAYETTE AV-C,176,A43,IND,8th Av - Fulton St,Lafayette Av,Bk,C,Subway,40.686113,-73.973946,Manhattan,Euclid Av,"N"
LEXINGTON AV/53-EM6,612,F11,IND,Queens Blvd,Lexington Av/53 St,M,E M,Subway,40.757552,-73.969055,Queens,Downtown & Brooklyn,"Y"
LEXINGTON AV/63-F,223,B08,IND,63rd St,Lexington Av/63 St,M,F Q,Subway,40.764629,-73.966113,Uptown - Queens,Downtown & Brooklyn,"Y"
LIBERTY AV-C,185,A52,IND,8th Av - Fulton St,Liberty Av,Bk,C,Subway,40.674542,-73.896548,Manhattan,Euclid Av,"N"
LIVONIA AV-L,135,L26,BMT,Canarsie,Livonia Av,Bk,L,Elevated,40.664038,-73.900571,Manhattan,Canarsie - Rockaway Parkway,"N"
LONGWOOD AV-6,372,614,IRT,Pelham,Longwood Av,Bx,6,Subway,40.816104,-73.896435,Pelham Bay Park,Manhattan,"N"
LORIMER ST-JM,99,M13,BMT,Jamaica,Lorimer St,Bk,J M,Elevated,40.703869,-73.947408,Jamaica - Middle Village,Manhattan,"N"
LORIMER ST-LG,629,L10,BMT,Canarsie,Lorimer St,Bk,L,Subway,40.714063,-73.950275,Manhattan,Canarsie - Rockaway Parkway,"N"
MARBLE HILL-225-1,296,106,IRT,Broadway - 7Av,Marble Hill-225 St,M,1,Elevated,40.874561,-73.909831,242 St,Downtown,"N"
MARCY AV-JMZ,101,M16,BMT,Jamaica,Marcy Av,Bk,J M Z,Elevated,40.708359,-73.957757,Jamaica - Middle Village,Manhattan,"N"
METROPOLITAN AV-GL,629,G29,IND,Crosstown,Metropolitan Av,Bk,G,Subway,40.712792,-73.951418,Queens,Church Av,"N"
METROPOLITAN AV-M,108,M01,BMT,Myrtle Av,Middle Village-Metropolitan Av,Q,M,Elevated,40.711396,-73.889601,Manhattan,,"N"
METS-WILLETS PT-7,448,702,IRT,Flushing,Mets-Willets Point,Q,7,Elevated,40.754622,-73.845625,Flushing,Manhattan,"N"
MIDDLETOWN RD-6,362,603,IRT,Pelham,Middletown Rd,Bx,6,Elevated,40.843863,-73.836322,Pelham Bay Park,Manhattan,"N"
MONTROSE AV-L,124,L13,BMT,Canarsie,Montrose Av,Bk,L,Subway,40.707739,-73.93985,Manhattan,Canarsie - Rockaway Parkway,"N"
MORGAN AV-L,125,L14,BMT,Canarsie,Morgan Av,Bk,L,Subway,40.706152,-73.933147,Manhattan,Canarsie - Rockaway Parkway,"N"
MORISN AV/SNDVW-6,368,610,IRT,Pelham,Morrison Av-Soundview,Bx,6,Elevated,40.829521,-73.874516,Pelham Bay Park,Manhattan,"N"
MORRIS PARK-5,446,505,IRT,Dyre Av,Morris Park,Bx,5,Open Cut,40.854364,-73.860495,Eastchester - Dyre Av,Manhattan,"N"
MOSHOLU PKWY-4,379,402,IRT,Jerome Av,Mosholu Pkwy,Bx,4,Elevated,40.87975,-73.884655,Woodlawn,Manhattan,"N"
MT EDEN AV-4,386,411,IRT,Jerome Av,Mt Eden Av,Bx,4,Elevated,40.844434,-73.914685,Woodlawn,Manhattan,"N"
MYRTLE AV-JMZ,97,M11,BMT,Jamaica,Myrtle Av,Bk,J M Z,Elevated,40.697207,-73.935657,Jamaica - Middle Village,Manhattan,"N"
MYRTLE-WILLOUGH-G,288,G32,IND,Crosstown,Myrtle-Willoughby Avs,Bk,G,Subway,40.694568,-73.949046,Queens,Church Av,"N"
MYRTLE-WYCKOFF-LM,630,M08,BMT,Myrtle Av,Myrtle-Wyckoff Avs,Bk,M,Elevated,40.69943,-73.912385,Manhattan,Metropolitan Av,"N"
NASSAU AV-G,284,G28,IND,Crosstown,Nassau Av,Bk,G,Subway,40.724635,-73.951277,Queens,Church Av,"N"
NECK RD-BQ,53,D38,BMT,Broadway - Brighton,Neck Rd,Bk,Q,Open Cut,40.595246,-73.955161,Manhattan,Brighton Beach & Coney Island,"N"
NEPTUNE AV-F,253,F39,IND,6th Av - Culver,Neptune Av,Bk,F,Elevated,40.581011,-73.974574,Manhattan,Stillwell Av,"N"
NEREID AV-25,417,204,IRT,Lenox - White Plains Rd,Nereid Av,Bx,2 5,Elevated,40.898379,-73.854376,Wakefield - 241 St,Manhattan,"N"
NEVINS ST-2345,337,234,IRT,Eastern Pky,Nevins St,Bk,2 3 4 5,Subway,40.688246,-73.980492,Manhattan,Flatbush - Utica - New Lots,"N"
NEW DORP-1-SIR,510,S22,SIR,Staten Island,New Dorp,SI,SIR,Open Cut,40.57348,-74.11721,St George,Tottenville,"N"
NEW LOTS AV-3,352,257,IRT,Eastern Pky,New Lots Av,Bk,3,Elevated,40.666235,-73.884079,Manhattan,,"N"
NEW LOTS-L,136,L27,BMT,Canarsie,New Lots Av,Bk,L,Elevated,40.658733,-73.899232,Manhattan,Canarsie - Rockaway Parkway,"N"
NEW UTRECHT AV-ND,615,N04,BMT,Sea Beach,New Utrecht Av,Bk,N,Open Cut,40.624842,-73.996353,Manhattan,Coney Island,"N"
NEWARK BM BW-1-PATH,907,,,,Newark BM,J,,,,,,,"N"
NEWARK C-1-PATH,906,,,,Newark C,J,,,,,,,"N"
NEWARK HM HE-1-PATH,908,,,,Newark HM HE,J,,,,,,,"N"
NEWARK HW BMEBE-1-PATH,909,,,,Newark HW BMEBE,J,,,,,,,"N"
NEWKIRK AV-25,358,246,IRT,Nostrand,Newkirk Av - Little Haiti,Bk,2 5,Subway,40.639967,-73.948411,Manhattan,Flatbush,"N"
NEWKIRK PLAZA-BQ,47,D31,BMT,Broadway - Brighton,Newkirk Plaza,Bk,B Q,Open Cut,40.635082,-73.962793,Manhattan,Brighton Beach & Coney Island,"N"
NO MATCH-PELHAM ,445,504,IRT,Dyre Av,Pelham Pkwy,Bx,5,Open Cut,40.858985,-73.855359,Eastchester - Dyre Av,Manhattan,"N"
NORTHERN BLVD-MR,269,G16,IND,Queens Blvd,Northern Blvd,Q,M R,Subway,40.752885,-73.906006,Forest Hills,Manhattan,"N"
NORWOOD 205 ST-D,210,D01,IND,Concourse,Norwood-205 St,Bx,D,Subway,40.874811,-73.878855,,Manhattan,"N"
NORWOOD AV-JZ,88,J21,BMT,Jamaica,Norwood Av,Bk,J Z,Elevated,40.68141,-73.880039,Jamaica,Manhattan,"N"
NOSTRAND AV-3,343,248,IRT,Eastern Pky,Nostrand Av,Bk,3,Subway,40.669847,-73.950466,Manhattan,New Lots,"N"
NOSTRAND AV-AC,179,A46,IND,8th Av - Fulton St,Nostrand Av,Bk,A C,Subway,40.680438,-73.950426,Manhattan,Euclid - Lefferts - Rockaways,"N"
OAKWOOD HEIGHTS-1-SIR,511,S21,SIR,Staten Island,Oakwood Heights,SI,SIR,Open Cut,40.56511,-74.12632,St George,Tottenville,"N"
OCEAN PKWY-Q,56,D41,BMT,Broadway - Brighton,Ocean Pkwy,Bk,Q,Elevated,40.576312,-73.968501,Manhattan,Stillwell Av,"N"
OLD TOWN-1-SIR,506,S26,SIR,Staten Island,Old Town,SI,SIR,Embankment,40.596612,-74.087368,St George,Tottenville,"N"
OZONE PK LEFFRT-A,195,A65,IND,Liberty Av,Ozone Park-Lefferts Blvd,Q,A,Elevated,40.685951,-73.825798,Manhattan,,"N"
PARK PLACE-23ACE,624,228,IRT,Clark St,Park Place,M,2 3,Subway,40.713051,-74.008811,Uptown & The Bronx,Downtown & Brooklyn,"Y"
PARK PLACE-S,141,S03,BMT,Franklin Shuttle,Park Pl,Bk,S,Open Cut,40.674772,-73.957624,Franklin Av,Prospect Park,"N"
PARKCHESTER-6,366,608,IRT,Pelham,Parkchester,Bx,6,Elevated,40.833226,-73.860816,Pelham Bay Park,Manhattan,"N"
PARKSIDE AV-BQ,43,D27,BMT,Broadway - Brighton,Parkside Av,Bk,Q,Open Cut,40.655292,-73.961495,Manhattan,Brighton Beach & Coney Island,"N"
PARSONS BLVD-F,256,F03,IND,Queens Blvd,Parsons Blvd,Q,F,Subway,40.707564,-73.803326,179 St,Manhattan,"N"
PATH NEW WTC-1-PATH,901,,,,Path WTC,M,,,,,,,"Y"
PATH WTC 2-1-PATH,900,,,,Path WTC 2,M,,,,,,,"Y"
PAVONIA/NEWPORT-1-PATH,916,,,,,J,,,,,,,"N"
PELHAM BAY PARK-6,360,601,IRT,Pelham,Pelham Bay Park,Bx,6,Elevated,40.852462,-73.828121,,Manhattan,"N"
PELHAM PKWY-25,424,211,IRT,Lenox - White Plains Rd,Pelham Pkwy,Bx,2 5,Elevated,40.857192,-73.867615,Wakefield - 241 St,Manhattan,"N"
PELHAM PKWY-5,445,504,IRT,Dyre Av,Pelham Pkwy,Bx,5,Open Cut,40.858985,-73.855359,Eastchester - Dyre Av,Manhattan,"N"
PENNSYLVANIA AV-3,350,255,IRT,Eastern Pky,Pennsylvania Av,Bk,3,Elevated,40.664635,-73.894895,Manhattan,New Lots,"N"
PLEASANT PLAINS-1-SIR,518,S14,SIR,Staten Island,Pleasant Plains,SI,SIR,Embankment,40.52241,-74.217847,St George,Tottenville,"N"
PRESIDENT ST-25,353,241,IRT,Nostrand,President Street-Medgar Evers College,Bk,2 5,Subway,40.667883,-73.950683,Manhattan,Flatbush,"N"
PRINCE ST-NRW,17,R22,BMT,Broadway - Brighton,Prince St,M,R W,Subway,40.724329,-73.997702,Uptown & Queens,Downtown & Brooklyn,"Y"
PRINCE'S BAY-1-SIR,517,S15,SIR,Staten Island,Prince's Bay,SI,SIR,Open Cut,40.525507,-74.200064,St George,Tottenville,"N"
PROSPECT AV-25,432,219,IRT,Lenox - White Plains Rd,Prospect Av,Bx,2 5,Elevated,40.819585,-73.90177,Wakefield - Eastchester,Manhattan,"N"
PROSPECT AV-R,30,R34,BMT,4th Av,Prospect Av,Bk,R,Subway,40.665414,-73.992872,Manhattan,Bay Ridge - 95 St,"N"
PROSPECT PARK-BQS,42,D26,BMT,Broadway - Brighton,Prospect Park,Bk,B Q S,Open Cut,40.661614,-73.962246,Manhattan & Franklin Av,Brighton Beach & Coney Island,"N"
QUEENS PLAZA-EMR,273,G21,IND,Queens Blvd,Queens Plaza,Q,E M R,Subway,40.748973,-73.937243,Forest Hills - Jamaica,Manhattan,"N"
QUEENSBORO PLZ-7NQW,461,R09,BMT,Astoria,Queensboro Plaza,Q,N W,Elevated,40.750582,-73.940202,Astoria - Flushing,Manhattan,"N"
RALPH AV-C,182,A49,IND,8th Av - Fulton St,Ralph Av,Bk,C,Subway,40.678822,-73.920786,Manhattan,Euclid Av,"N"
RECTOR ST-1,329,139,IRT,Broadway - 7Av,Rector St,M,1,Subway,40.707513,-74.013783,Uptown & The Bronx,Downtown,"Y"
RECTOR ST-NRW,22,R26,BMT,Broadway,Rector St,M,R W,Subway,40.70722,-74.013342,Uptown & Queens,Downtown & Brooklyn,"Y"
RICHMOND VALLEY-1-SIR,519,S13,SIR,Staten Island,Richmond Valley,SI,SIR,Open Cut,40.519631,-74.229141,St George,Tottenville,"N"
RIT-MANHATTAN-R,802,,,,Roosevelt Island Tram-Manhattan,M,,,,,,,"Y"
RIT-ROOSEVELT-R,801,,,,Roosevelt Island Tram-Roosevelt I,M,,,,,,,"Y"
ROCKAWAY AV-3,348,253,IRT,Eastern Pky,Rockaway Av,Bk,3,Elevated,40.662549,-73.908946,Manhattan,New Lots,"N"
ROCKAWAY AV-C,183,A50,IND,8th Av - Fulton St,Rockaway Av,Bk,C,Subway,40.67834,-73.911946,Manhattan,Euclid Av,"N"
ROCKAWAY BLVD-A,192,A61,IND,Liberty Av,Rockaway Blvd,Q,A,Elevated,40.680429,-73.843853,Manhattan,Lefferts - Rockaways,"N"
ROCKAWAY PARK B-AS,203,H15,IND,Rockaway,Rockaway Park-Beach 116 St,Q,A S,At Grade,40.580903,-73.835592,Manhattan,,"N"
ROOSEVELT ISLND-F,222,B06,IND,63rd St,Roosevelt Island,M,F,Subway,40.759145,-73.95326,Queens,Manhattan,"N"
SARATOGA AV-3,347,252,IRT,Eastern Pky,Saratoga Av,Bk,3,Elevated,40.661453,-73.916327,Manhattan,New Lots,"N"
SENECA AVE-M,111,M06,BMT,Myrtle Av,Seneca Av,Q,M,Elevated,40.702762,-73.90774,Manhattan,Metropolitan Av,"N"
SHEEPSHEAD BAY-BQ,54,D39,BMT,Broadway - Brighton,Sheepshead Bay,Bk,B Q,Open Cut,40.586896,-73.954155,Manhattan,Brighton Beach & Coney Island,"N"
SHEPHERD AV-C,187,A54,IND,8th Av - Fulton St,Shepherd Av,Bk,C,Subway,40.67413,-73.88075,Manhattan,Euclid Av,"N"
SIMPSON ST-25,430,217,IRT,Lenox - White Plains Rd,Simpson St,Bx,2 5,Elevated,40.824073,-73.893064,Wakefield - Eastchester,Manhattan,"N"
SMITH-9 ST-FG,238,F22,IND,6th Av - Culver,Smith-9 Sts,Bk,F G,Viaduct,40.67358,-73.995959,Manhattan - Queens,Church Av - Coney Island,"N"
SOUTH FERRY-1RW,635,142,IRT,Broadway - 7Av,South Ferry,M,1,Subway,40.702068,-74.013664,Uptown & The Bronx,,"Y"
SPRING ST-6,409,638,IRT,Lexington Av,Spring St,M,6,Subway,40.722301,-73.997141,Uptown & The Bronx,Downtown,"Y"
SPRING ST-CE,168,A33,IND,8th Av - Fulton St,Spring St,M,C E,Subway,40.726227,-74.003739,Uptown - Queens,Downtown & Brooklyn,"Y"
ST LAWRENCE AV-6,367,609,IRT,Pelham,St Lawrence Av,Bx,6,Elevated,40.831509,-73.867618,Pelham Bay Park,Manhattan,"N"
ST. GEORGE-1-SIR,501,S31,SIR,Staten Island,St George,SI,SIR,Open Cut,40.643748,-74.073643,,Tottenville,"N"
STAPLETON-1-SIR,503,S29,SIR,Staten Island,Stapleton,SI,SIR,Elevated,40.627915,-74.075162,St George,Tottenville,"N"
STEINWAY ST-MR,271,G19,IND,Queens Blvd,Steinway St,Q,M R,Subway,40.756879,-73.92074,Forest Hills,Manhattan,"N"
STERLING ST-25,354,242,IRT,Nostrand,Sterling St,Bk,2 5,Subway,40.662742,-73.95085,Manhattan,Flatbush,"N"
SUTPHIN BLVD-F,257,F04,IND,Queens Blvd,Sutphin Blvd,Q,F,Subway,40.70546,-73.810708,179 St,Manhattan,"N"
SUTPHIN-ARCHER-EJZ,279,G06,IND,Queens - Archer,Sutphin Blvd-Archer Av-JFK Airport,Q,E J Z,Subway,40.700486,-73.807969,Jamaica Center,Manhattan,"N"
SUTTER AV-L,134,L25,BMT,Canarsie,Sutter Av,Bk,L,Elevated,40.669367,-73.901975,Manhattan,Canarsie - Rockaway Parkway,"N"
SUTTER AV-RUTLD-3,346,251,IRT,Eastern Pky,Sutter Av-Rutland Rd,Bk,3,Elevated,40.664717,-73.92261,Manhattan,New Lots,"N"
THIRTY ST-1-PATH,917,,,,PATH-30 St,M,,,,,,,"Y"
THIRTY THIRD ST-1-PATH,910,,,,PATH-33 St,M,,,,,,,"Y"
TIMES SQ-42 ST-1237ACENQRSW,611,127,IRT,Broadway - 7Av,Times Sq-42 St,M,1 2 3 7 A C E N Q R S W,Subway,40.75529,-73.987495,Uptown & The Bronx,Downtown & Brooklyn,"Y"
TOMPKINSVILLE-1-SIR,502,S30,SIR,Staten Island,Tompkinsville,SI,SIR,At Grade,40.636949,-74.074835,St George,Tottenville,"N"
TOTTENVILLE-1-SIR,522,S09,SIR,Staten Island,Tottenville,SI,SIR,At Grade,40.512764,-74.251961,St George,,"N"
TREMONT AV-BD,215,D07,IND,Concourse,Tremont Av,Bx,B D,Subway,40.85041,-73.905227,Bedford Pk Blvd & 205 St,Manhattan,"N"
TWENTY THIRD ST-1-PATH,911,,,,PATH-23 St,M,,,,,,,"Y"
UNION ST-R,28,R32,BMT,4th Av,Union St,Bk,R,Subway,40.677316,-73.98311,Manhattan,Bay Ridge - 95 St,"N"
UTICA AV-AC,181,A48,IND,8th Av - Fulton St,Utica Av,Bk,A C,Subway,40.679364,-73.930729,Manhattan,Euclid - Lefferts - Rockaways,"N"
V.CORTLANDT PK-1,293,101,IRT,Broadway - 7Av,Van Cortlandt Park-242 St,Bx,1,Elevated,40.889248,-73.898583,,Manhattan,"N"
VAN SICLEN AV-3,351,256,IRT,Eastern Pky,Van Siclen Av,Bk,3,Elevated,40.665449,-73.889395,Manhattan,New Lots,"N"
VAN SICLEN AV-JZ,90,J23,BMT,Jamaica,Van Siclen Av,Bk,J Z,Elevated,40.678024,-73.891688,Jamaica,Manhattan,"N"
VAN SICLEN AVE-C,186,A53,IND,8th Av - Fulton St,Van Siclen Av,Bk,C,Subway,40.67271,-73.890358,Manhattan,Euclid Av,"N"
VERNON-JACKSON-7,464,721,IRT,Flushing,Vernon Blvd-Jackson Av,Q,7,Subway,40.742626,-73.953581,Flushing,Manhattan,"N"
W 4 ST-WASH SQ-ABCDEFM,167,A32,IND,8th Av - Fulton St,W 4 St-Wash Sq,M,A C E,Subway,40.732338,-74.000495,Uptown - Queens,Downtown & Brooklyn,"Y"
W 8 ST-AQUARIUM-FQ,57,D42,BMT,Broadway - Brighton,W 8 St-NY Aquarium,Bk,F Q,Elevated,40.576127,-73.975939,Manhattan,Stillwell Av,"N"
WAKEFIELD/241-2,416,201,IRT,Lenox - White Plains Rd,Wakefield-241 St,Bx,2,Elevated,40.903125,-73.85062,,Manhattan,"N"
WALL ST-23,333,230,IRT,Clark St,Wall St,M,2 3,Subway,40.706821,-74.0091,Uptown & The Bronx,Brooklyn,"Y"
WALL ST-45,413,419,IRT,Lexington Av,Wall St,M,4 5,Subway,40.707557,-74.011862,Uptown & The Bronx,Downtown & Brooklyn,"Y"
WEST FARMS SQ-25,427,214,IRT,Lenox - White Plains Rd,West Farms Sq-E Tremont Av,Bx,2 5,Elevated,40.840295,-73.880049,Wakefield - Eastchester,Manhattan,"N"
WESTCHESTER SQ-6,363,604,IRT,Pelham,Westchester Sq-E Tremont Av,Bx,6,Elevated,40.839892,-73.842952,Pelham Bay Park,Manhattan,"N"
WHITEHALL S-FRY-R1W,635,R27,BMT,Broadway,Whitehall St-South Ferry,M,R W,Subway,40.703087,-74.012994,Uptown & Queens,Brooklyn,"Y"
WHITLOCK AV-6,370,612,IRT,Pelham,Whitlock Av,Bx,6,Elevated,40.826525,-73.886283,Pelham Bay Park,Manhattan,"N"
WILSON AV-L,130,L20,BMT,Canarsie,Wilson Av,Bk,L,Subway,40.688764,-73.904046,Manhattan,Canarsie - Rockaway Parkway,"N"
WINTHROP ST-25,355,243,IRT,Nostrand,Winthrop St,Bk,2 5,Subway,40.656652,-73.9502,Manhattan,Flatbush,"N"
WOODHAVEN BLVD-JZ,83,J15,BMT,Jamaica,Woodhaven Blvd,Q,J Z,Elevated,40.693879,-73.851576,Jamaica,Manhattan,"N"
WOODHAVEN BLVD-MR,264,G11,IND,Queens Blvd,Woodhaven Blvd,Q,M R,Subway,40.733106,-73.869229,Forest Hills,Manhattan,"N"
WOODLAWN-4,378,401,IRT,Jerome Av,Woodlawn,Bx,4,Elevated,40.886037,-73.878751,,Manhattan,"N"
WORLD TRADE CTR-ACE23,624,E01,IND,8th Av - Fulton St,World Trade Center,M,E,Subway,40.712582,-74.009781,Uptown & Queens,,"Y"
WTC-CORTLANDT-1,328,138,IRT,Broadway - 7Av,WTC Cortlandt,M,1,Subway,40.711835,-74.012188,Uptown & The Bronx,Downtown,"Y"
YORK ST-F,235,F18,IND,6th Av - Culver,York St,Bk,F,Subway,40.701397,-73.986751,Manhattan,Coney Island,"N"
ZEREGA AV-6,364,606,IRT,Pelham,Zerega Av,Bx,6,Elevated,40.836488,-73.847036,Pelham Bay Park,Manhattan,"N"
